[{"ref":"52cdef7c4bab8bd675297f94","Name":"PeekYou","Category":"search","Description":"","Latitude":40.757929,"Longitude":-73.985506,"Founded Year":2012.0,"Total Money Raised":"$1.83M","Raised Amount":1825000.0,"Currency":"USD","Address":null,"Zip code":null,"City":"New York","GeoLocations":{"type":"Point","coordinates":[-73.985506,40.757929]}},{"ref":"52cdef7c4bab8bd675297f9e","Name":"GENWI","Category":"mobile","Description":"Cloud Publishing for Mobile","Latitude":33.8171,"Longitude":-111.9035,"Founded Year":2010.0,"Total Money Raised":"$7.1M","Raised Amount":7100000.0,"Currency":"USD","Address":"4966 El Camino Real","Zip code":"94022","City":"Los Altos","GeoLocations":{"type":"Point","coordinates":[-111.9035,33.8171]}},{"ref":"52cdef7c4bab8bd675297fec","Name":"Fixya","Category":"web","Description":"Tech Support Community","Latitude":37.566879,"Longitude":-122.323895,"Founded Year":2013.0,"Total Money Raised":"$8M","Raised Amount":8000000.0,"Currency":"USD","Address":"One Franklin Parkway","Zip code":"94401","City":"San Mateo","GeoLocations":{"type":"Point","coordinates":[-122.323895,37.566879]}},{"ref":"52cdef7c4bab8bd6752981a0","Name":"Pinger","Category":"messaging","Description":"","Latitude":37.3348417,"Longitude":-121.8884451,"Founded Year":2012.0,"Total Money Raised":"$18.5M","Raised Amount":18500000.0,"Currency":"USD","Address":"97 S. 2nd Street","Zip code":"95113","City":"San Jose","GeoLocations":{"type":"Point","coordinates":[-121.8884451,37.3348417]}},{"ref":"52cdef7c4bab8bd6752981d8","Name":"Widgetbox","Category":"other","Description":"Application creation and distribution","Latitude":37.798853,"Longitude":-122.398599,"Founded Year":2012.0,"Total Money Raised":"$14.5M","Raised Amount":14500000.0,"Currency":"USD","Address":null,"Zip code":"94111","City":"San Francisco","GeoLocations":{"type":"Point","coordinates":[-122.398599,37.798853]}},{"ref":"52cdef7c4bab8bd6752981dc","Name":"RazorGator","Category":"ecommerce","Description":"online ticket reselling","Latitude":34.047312,"Longitude":-118.445243,"Founded Year":2011.0,"Total Money Raised":"$58.8M","Raised Amount":58800000.0,"Currency":"USD","Address":"11150 Santa Monica Blvd. Suite 500","Zip code":"90025","City":"Los Angeles","GeoLocations":{"type":"Point","coordinates":[-118.445243,34.047312]}},{"ref":"52cdef7c4bab8bd67529831a","Name":"Social Gaming Network","Category":"games_video","Description":"social gaming platform","Latitude":37.446823,"Longitude":-122.161523,"Founded Year":2011.0,"Total Money Raised":"$17.1M","Raised Amount":17100000.0,"Currency":"USD","Address":"9570 W. Pico Blvd 3rd Floor","Zip code":"90035","City":"Los Angeles","GeoLocations":{"type":"Point","coordinates":[-122.161523,37.446823]}},{"ref":"52cdef7c4bab8bd67529831a","Name":"Social Gaming Network","Category":"games_video","Description":"social gaming platform","Latitude":34.0698494,"Longitude":-118.4054182,"Founded Year":2011.0,"Total Money Raised":"$17.1M","Raised Amount":17100000.0,"Currency":"USD","Address":"9606 S. Santa Monica Blvd","Zip code":"90210","City":"Beverly Hills","GeoLocations":{"type":"Point","coordinates":[-118.4054182,34.0698494]}},{"ref":"52cdef7c4bab8bd675298509","Name":"Skydeck","Category":"mobile","Description":"photos social mobile messaging","Latitude":37.5645375,"Longitude":-122.3254705,"Founded Year":2012.0,"Total Money Raised":"$4M","Raised Amount":4000000.0,"Currency":"USD","Address":"330 Waverley St.","Zip code":"94301","City":"Palo Alto","GeoLocations":{"type":"Point","coordinates":[-122.3254705,37.5645375]}},{"ref":"52cdef7c4bab8bd675298608","Name":"Magento","Category":"ecommerce","Description":"eCommerce Platform","Latitude":34.052187,"Longitude":-118.243425,"Founded Year":2010.0,"Total Money Raised":"$22.5M","Raised Amount":22500000.0,"Currency":"USD","Address":"","Zip code":"","City":"Los Angeles","GeoLocations":{"type":"Point","coordinates":[-118.243425,34.052187]}},{"ref":"52cdef7c4bab8bd67529865e","Name":"TeamSnap","Category":"mobile","Description":"sports teams online","Latitude":40.0177735,"Longitude":-105.2819288,"Founded Year":2009.0,"Total Money Raised":"$5.08M","Raised Amount":5077276.0,"Currency":"USD","Address":"1035 Pearl St.","Zip code":"80302","City":"Boulder","GeoLocations":{"type":"Point","coordinates":[-105.2819288,40.0177735]}},{"ref":"52cdef7d4bab8bd675298970","Name":"Pixsta","Category":"web","Description":"Visual Search for ecommerce","Latitude":51.51819,"Longitude":-0.208979,"Founded Year":2010.0,"Total Money Raised":"\u00a33M","Raised Amount":3000000.0,"Currency":"GBP","Address":"9 Thorpe Close","Zip code":"W10 5XL","City":"London","GeoLocations":{"type":"Point","coordinates":[-0.208979,51.51819]}},{"ref":"52cdef7d4bab8bd675298ce2","Name":"BrandYourself","Category":"web","Description":"Take Control of Your Own Search Results","Latitude":42.275263,"Longitude":-71.24762,"Founded Year":2009.0,"Total Money Raised":"$1.5M","Raised Amount":1500000.0,"Currency":"USD","Address":"120 Walker St","Zip code":"10013","City":"New York","GeoLocations":{"type":"Point","coordinates":[-71.24762,42.275263]}},{"ref":"52cdef7d4bab8bd675298dcc","Name":"Titan Gaming","Category":"games_video","Description":"","Latitude":53.544711,"Longitude":-113.515769,"Founded Year":2010.0,"Total Money Raised":"$1M","Raised Amount":1000000.0,"Currency":"USD","Address":"1351 4th Street, 4th floor","Zip code":"90401","City":"Santa Monica","GeoLocations":{"type":"Point","coordinates":[-113.515769,53.544711]}},{"ref":"52cdef7d4bab8bd675298f74","Name":"SiSense","Category":"analytics","Description":"Big Data Analytics","Latitude":32.8202856,"Longitude":34.9991402,"Founded Year":2010.0,"Total Money Raised":"$10M","Raised Amount":10000000.0,"Currency":"USD","Address":"36 Hanamal st.","Zip code":"","City":"Tel Aviv","GeoLocations":{"type":"Point","coordinates":[34.9991402,32.8202856]}},{"ref":"52cdef7d4bab8bd675298f74","Name":"SiSense","Category":"analytics","Description":"Big Data Analytics","Latitude":40.7076193,"Longitude":-74.0105948,"Founded Year":2010.0,"Total Money Raised":"$10M","Raised Amount":10000000.0,"Currency":"USD","Address":"14 Wall Street","Zip code":"","City":"NYC","GeoLocations":{"type":"Point","coordinates":[-74.0105948,40.7076193]}},{"ref":"52cdef7d4bab8bd6752993a7","Name":"Prezi","Category":"software","Description":"Presentation Software","Latitude":47.490346,"Longitude":19.059078,"Founded Year":2009.0,"Total Money Raised":"$14.3M","Raised Amount":14260000.0,"Currency":"USD","Address":"Nagymez\u0151 utca 54-56","Zip code":"1065","City":"Budapest","GeoLocations":{"type":"Point","coordinates":[19.059078,47.490346]}},{"ref":"52cdef7d4bab8bd6752993a7","Name":"Prezi","Category":"software","Description":"Presentation Software","Latitude":37.7961572,"Longitude":-122.4037646,"Founded Year":2009.0,"Total Money Raised":"$14.3M","Raised Amount":14260000.0,"Currency":"USD","Address":"735 Montgomery Street","Zip code":"94111","City":"San Francisco","GeoLocations":{"type":"Point","coordinates":[-122.4037646,37.7961572]}},{"ref":"52cdef7d4bab8bd6752994a6","Name":"GetYourGuide","Category":"travel","Description":"Booking website for tours & activities","Latitude":47.3912899,"Longitude":8.5082891,"Founded Year":2009.0,"Total Money Raised":"$16M","Raised Amount":16000000.0,"Currency":"USD","Address":"GetYourGuide AG","Zip code":"8005","City":"Zurich","GeoLocations":{"type":"Point","coordinates":[8.5082891,47.3912899]}},{"ref":"52cdef7d4bab8bd6752994a6","Name":"GetYourGuide","Category":"travel","Description":"Booking website for tours & activities","Latitude":52.5486606,"Longitude":13.4068523,"Founded Year":2009.0,"Total Money Raised":"$16M","Raised Amount":16000000.0,"Currency":"USD","Address":"GetYourGuide GmbH","Zip code":"10409","City":"Berlin","GeoLocations":{"type":"Point","coordinates":[13.4068523,52.5486606]}},{"ref":"52cdef7d4bab8bd6752994a6","Name":"GetYourGuide","Category":"travel","Description":"Booking website for tours & activities","Latitude":40.6892494,"Longitude":-74.0445004,"Founded Year":2009.0,"Total Money Raised":"$16M","Raised Amount":16000000.0,"Currency":"USD","Address":"GetYourGuide","Zip code":"89032","City":"Las Vegas","GeoLocations":{"type":"Point","coordinates":[-74.0445004,40.6892494]}},{"ref":"52cdef7d4bab8bd675299583","Name":"Integrate","Category":"software","Description":"Marketing Software and Media Services","Latitude":40.7481039,"Longitude":-74.0353787,"Founded Year":2010.0,"Total Money Raised":"$34.8M","Raised Amount":34750000.0,"Currency":"USD","Address":"4900 N. Scottsdale Road","Zip code":"85251","City":"Scottsdale","GeoLocations":{"type":"Point","coordinates":[-74.0353787,40.7481039]}},{"ref":"52cdef7d4bab8bd675299583","Name":"Integrate","Category":"software","Description":"Marketing Software and Media Services","Latitude":39.752908,"Longitude":-104.9965953,"Founded Year":2010.0,"Total Money Raised":"$34.8M","Raised Amount":34750000.0,"Currency":"USD","Address":"1821 Blake St.","Zip code":"80202","City":"Denver","GeoLocations":{"type":"Point","coordinates":[-104.9965953,39.752908]}},{"ref":"52cdef7d4bab8bd675299583","Name":"Integrate","Category":"software","Description":"Marketing Software and Media Services","Latitude":37.7877542,"Longitude":-122.4040147,"Founded Year":2010.0,"Total Money Raised":"$34.8M","Raised Amount":34750000.0,"Currency":"USD","Address":"23 Geary St","Zip code":"94104","City":"San Francisco","GeoLocations":{"type":"Point","coordinates":[-122.4040147,37.7877542]}},{"ref":"52cdef7d4bab8bd675299583","Name":"Integrate","Category":"software","Description":"Marketing Software and Media Services","Latitude":41.8857901,"Longitude":-87.9325994,"Founded Year":2010.0,"Total Money Raised":"$34.8M","Raised Amount":34750000.0,"Currency":"USD","Address":"239 South Street","Zip code":"01748","City":"Hopkinton","GeoLocations":{"type":"Point","coordinates":[-87.9325994,41.8857901]}},{"ref":"52cdef7d4bab8bd6752995ff","Name":"travelmob","Category":"travel","Description":"Social Stay Marketplace","Latitude":21.303049,"Longitude":-157.78907,"Founded Year":2011.0,"Total Money Raised":"$1M","Raised Amount":1000000.0,"Currency":"USD","Address":"71 Ayer Rajah Crescent","Zip code":"139951","City":"Singapore","GeoLocations":{"type":"Point","coordinates":[-157.78907,21.303049]}},{"ref":"52cdef7d4bab8bd675299636","Name":"UsingMiles","Category":"travel","Description":"Award+Cash Travel Meta Search ","Latitude":39.749671,"Longitude":-104.9998449,"Founded Year":2010.0,"Total Money Raised":"$3.27M","Raised Amount":3265000.0,"Currency":"USD","Address":"1514 Blake St","Zip code":"80202","City":"Denver","GeoLocations":{"type":"Point","coordinates":[-104.9998449,39.749671]}},{"ref":"52cdef7d4bab8bd6752996f5","Name":"Burt","Category":"advertising","Description":"Digital Intelligence Service","Latitude":59.337864,"Longitude":18.036587,"Founded Year":2009.0,"Total Money Raised":"$3.5M","Raised Amount":3500000.0,"Currency":"USD","Address":"Karl Gustavsgatan 1A","Zip code":"41125","City":"Gothenburg","GeoLocations":{"type":"Point","coordinates":[18.036587,59.337864]}},{"ref":"52cdef7d4bab8bd67529980b","Name":"Inuvo","Category":"advertising","Description":"Performance-based advertising","Latitude":27.913011,"Longitude":-82.702449,"Founded Year":2009.0,"Total Money Raised":"$4.2M","Raised Amount":4200000.0,"Currency":"USD","Address":"15500 Lightwave Dr.","Zip code":"33760","City":"Clearwater","GeoLocations":{"type":"Point","coordinates":[-82.702449,27.913011]}},{"ref":"52cdef7d4bab8bd67529990d","Name":"Integrate","Category":"software","Description":"Marketing Software and Media Services","Latitude":40.7481039,"Longitude":-74.0353787,"Founded Year":2010.0,"Total Money Raised":"$34.8M","Raised Amount":34750000.0,"Currency":"USD","Address":"4900 N. Scottsdale Road","Zip code":"85251","City":"Scottsdale","GeoLocations":{"type":"Point","coordinates":[-74.0353787,40.7481039]}},{"ref":"52cdef7d4bab8bd67529990d","Name":"Integrate","Category":"software","Description":"Marketing Software and Media Services","Latitude":39.752908,"Longitude":-104.9965953,"Founded Year":2010.0,"Total Money Raised":"$34.8M","Raised Amount":34750000.0,"Currency":"USD","Address":"1821 Blake St.","Zip code":"80202","City":"Denver","GeoLocations":{"type":"Point","coordinates":[-104.9965953,39.752908]}},{"ref":"52cdef7d4bab8bd67529990d","Name":"Integrate","Category":"software","Description":"Marketing Software and Media Services","Latitude":37.7877542,"Longitude":-122.4040147,"Founded Year":2010.0,"Total Money Raised":"$34.8M","Raised Amount":34750000.0,"Currency":"USD","Address":"23 Geary St","Zip code":"94104","City":"San Francisco","GeoLocations":{"type":"Point","coordinates":[-122.4040147,37.7877542]}},{"ref":"52cdef7d4bab8bd67529990d","Name":"Integrate","Category":"software","Description":"Marketing Software and Media Services","Latitude":41.8857901,"Longitude":-87.9325994,"Founded Year":2010.0,"Total Money Raised":"$34.8M","Raised Amount":34750000.0,"Currency":"USD","Address":"239 South Street","Zip code":"01748","City":"Hopkinton","GeoLocations":{"type":"Point","coordinates":[-87.9325994,41.8857901]}},{"ref":"52cdef7d4bab8bd675299989","Name":"travelmob","Category":"travel","Description":"Social Stay Marketplace","Latitude":21.303049,"Longitude":-157.78907,"Founded Year":2011.0,"Total Money Raised":"$1M","Raised Amount":1000000.0,"Currency":"USD","Address":"71 Ayer Rajah Crescent","Zip code":"139951","City":"Singapore","GeoLocations":{"type":"Point","coordinates":[-157.78907,21.303049]}},{"ref":"52cdef7d4bab8bd6752999c0","Name":"UsingMiles","Category":"travel","Description":"Award+Cash Travel Meta Search ","Latitude":39.749671,"Longitude":-104.9998449,"Founded Year":2010.0,"Total Money Raised":"$3.27M","Raised Amount":3265000.0,"Currency":"USD","Address":"1514 Blake St","Zip code":"80202","City":"Denver","GeoLocations":{"type":"Point","coordinates":[-104.9998449,39.749671]}},{"ref":"52cdef7d4bab8bd675299a7f","Name":"Burt","Category":"advertising","Description":"Digital Intelligence Service","Latitude":59.337864,"Longitude":18.036587,"Founded Year":2009.0,"Total Money Raised":"$3.5M","Raised Amount":3500000.0,"Currency":"USD","Address":"Karl Gustavsgatan 1A","Zip code":"41125","City":"Gothenburg","GeoLocations":{"type":"Point","coordinates":[18.036587,59.337864]}},{"ref":"52cdef7d4bab8bd675299b95","Name":"Inuvo","Category":"advertising","Description":"Performance-based advertising","Latitude":27.913011,"Longitude":-82.702449,"Founded Year":2009.0,"Total Money Raised":"$4.2M","Raised Amount":4200000.0,"Currency":"USD","Address":"15500 Lightwave Dr.","Zip code":"33760","City":"Clearwater","GeoLocations":{"type":"Point","coordinates":[-82.702449,27.913011]}},{"ref":"52cdef7d4bab8bd675299fd5","Name":"Webtab","Category":"mobile","Description":"Mobile social commerce","Latitude":37.7980248,"Longitude":-122.4025212,"Founded Year":2010.0,"Total Money Raised":"$2M","Raised Amount":2000000.0,"Currency":"USD","Address":"847 Sansome Street","Zip code":"94111","City":"San Francisco","GeoLocations":{"type":"Point","coordinates":[-122.4025212,37.7980248]}},{"ref":"52cdef7d4bab8bd67529a00e","Name":"Formspring","Category":"web","Description":"Conversational Q&A Service","Latitude":39.9052263,"Longitude":-86.0547016,"Founded Year":2009.0,"Total Money Raised":"$14.3M","Raised Amount":14255000.0,"Currency":"USD","Address":"","Zip code":"94105","City":"San Francisco","GeoLocations":{"type":"Point","coordinates":[-86.0547016,39.9052263]}},{"ref":"52cdef7d4bab8bd67529a08a","Name":"isocket","Category":"advertising","Description":"Direct ad sales platform","Latitude":37.55909,"Longitude":-122.321836,"Founded Year":2009.0,"Total Money Raised":"$10.1M","Raised Amount":10104119.0,"Currency":"USD","Address":"270 East Lane","Zip code":"94010","City":"Burlingame","GeoLocations":{"type":"Point","coordinates":[-122.321836,37.55909]}},{"ref":"52cdef7d4bab8bd67529a0b4","Name":"Emotive Communications","Category":"enterprise","Description":"mobile cloud computing","Latitude":37.793028,"Longitude":-122.4005565,"Founded Year":2011.0,"Total Money Raised":"$14M","Raised Amount":13950000.0,"Currency":"USD","Address":"345 California Street","Zip code":"94104","City":"San Francisco","GeoLocations":{"type":"Point","coordinates":[-122.4005565,37.793028]}},{"ref":"52cdef7d4bab8bd67529a14a","Name":"Diffbot","Category":"analytics","Description":"visual learning robot","Latitude":37.4252567,"Longitude":-122.1395653,"Founded Year":2010.0,"Total Money Raised":"$2M","Raised Amount":2000000.0,"Currency":"USD","Address":"395 Page Mill Rd","Zip code":"94306","City":"Palo Alto","GeoLocations":{"type":"Point","coordinates":[-122.1395653,37.4252567]}},{"ref":"52cdef7d4bab8bd67529a1e3","Name":"Yipit","Category":"web","Description":"Every deal. One place.","Latitude":40.744618,"Longitude":-73.987764,"Founded Year":2010.0,"Total Money Raised":"$7.55M","Raised Amount":7550000.0,"Currency":"USD","Address":"3 W 18th","Zip code":"10011","City":"New York","GeoLocations":{"type":"Point","coordinates":[-73.987764,40.744618]}},{"ref":"52cdef7e4bab8bd67529a29f","Name":"StudyBlue","Category":"education","Description":"StudyBlue is your online home to store l","Latitude":43.068006,"Longitude":-89.39256,"Founded Year":2009.0,"Total Money Raised":"$18.5M","Raised Amount":18453939.0,"Currency":"USD","Address":"612 W. Main St.","Zip code":"53703","City":"Madison","GeoLocations":{"type":"Point","coordinates":[-89.39256,43.068006]}},{"ref":"52cdef7e4bab8bd67529a44c","Name":"Storenvy","Category":"ecommerce","Description":"\"Tumblr for E-commerce\"","Latitude":37.7630374,"Longitude":-122.419242,"Founded Year":2009.0,"Total Money Raised":"$6.53M","Raised Amount":6525000.0,"Currency":"USD","Address":"2111 Mission St","Zip code":"94110","City":"San Francisco","GeoLocations":{"type":"Point","coordinates":[-122.419242,37.7630374]}},{"ref":"52cdef7e4bab8bd67529a4b2","Name":"HyperWeek","Category":"social","Description":"Social Networks ","Latitude":46.2121463,"Longitude":6.1503245,"Founded Year":2009.0,"Total Money Raised":"$1.31M","Raised Amount":1310000.0,"Currency":"USD","Address":"Rue de la Colline 10","Zip code":"1205","City":"Geneva","GeoLocations":{"type":"Point","coordinates":[6.1503245,46.2121463]}},{"ref":"52cdef7e4bab8bd67529a68e","Name":"FeedHenry","Category":"enterprise","Description":"Mobile Application Platform","Latitude":42.4851017,"Longitude":-71.2089211,"Founded Year":2010.0,"Total Money Raised":"$9M","Raised Amount":9000000.0,"Currency":"USD","Address":"15 New England Executive Park","Zip code":"01803","City":"Burlington","GeoLocations":{"type":"Point","coordinates":[-71.2089211,42.4851017]}},{"ref":"52cdef7e4bab8bd67529a73a","Name":"Jolicloud","Category":"enterprise","Description":"Cloud management platform","Latitude":48.8566667,"Longitude":2.3509871,"Founded Year":2009.0,"Total Money Raised":"$4.2M","Raised Amount":4200000.0,"Currency":"USD","Address":"","Zip code":"","City":"Paris","GeoLocations":{"type":"Point","coordinates":[2.3509871,48.8566667]}},{"ref":"52cdef7e4bab8bd67529a810","Name":"Avenir Medical","Category":"biotech","Description":"","Latitude":43.477365,"Longitude":-80.5491051,"Founded Year":2010.0,"Total Money Raised":"$4.03M","Raised Amount":4025000.0,"Currency":"USD","Address":"295 Hagey Blvd","Zip code":"N2L 6R5","City":"Waterloo, ON","GeoLocations":{"type":"Point","coordinates":[-80.5491051,43.477365]}},{"ref":"52cdef7e4bab8bd67529ab2f","Name":"ScaleMP","Category":"software","Description":"Virtualization for high end computing","Latitude":37.3229727,"Longitude":-122.0385792,"Founded Year":2009.0,"Total Money Raised":"$8M","Raised Amount":8000000.0,"Currency":"USD","Address":"20863 Stevens Creek Blvd.","Zip code":"95014","City":"Cupertino","GeoLocations":{"type":"Point","coordinates":[-122.0385792,37.3229727]}},{"ref":"52cdef7e4bab8bd67529abc2","Name":"VisualOn","Category":"software","Description":"Multimedia Software","Latitude":37.270518,"Longitude":-121.955879,"Founded Year":2011.0,"Total Money Raised":"$3.1M","Raised Amount":3100000.0,"Currency":"USD","Address":"4675 Stevens Creek Blvd","Zip code":"95051","City":"Santa Clara","GeoLocations":{"type":"Point","coordinates":[-121.955879,37.270518]}},{"ref":"52cdef7e4bab8bd67529abd9","Name":"Heyzap","Category":"games_video","Description":"Social Discovery Platform","Latitude":37.7905538,"Longitude":-122.4041485,"Founded Year":2009.0,"Total Money Raised":"$7.97M","Raised Amount":7965000.0,"Currency":"USD","Address":"3rd Floor, 251 Kearny Street","Zip code":"94108","City":"San Francisco","GeoLocations":{"type":"Point","coordinates":[-122.4041485,37.7905538]}},{"ref":"52cdef7e4bab8bd67529ac2f","Name":"Meez","Category":"hardware","Description":"Avatar community site","Latitude":37.785271,"Longitude":-122.397582,"Founded Year":2009.0,"Total Money Raised":"$10.2M","Raised Amount":10200000.0,"Currency":"USD","Address":"620 Folsom St, Suite 350","Zip code":"94107","City":"San Francisco","GeoLocations":{"type":"Point","coordinates":[-122.397582,37.785271]}},{"ref":"52cdef7e4bab8bd67529ae9f","Name":"Talari Networks","Category":"enterprise","Description":"Enterprise networking gear","Latitude":37.317735,"Longitude":-121.949417,"Founded Year":2009.0,"Total Money Raised":"$45.1M","Raised Amount":45100000.0,"Currency":"USD","Address":"550 S. Winchester Blvd.","Zip code":"95128","City":"San Jose","GeoLocations":{"type":"Point","coordinates":[-121.949417,37.317735]}},{"ref":"52cdef7e4bab8bd67529ae9f","Name":"Talari Networks","Category":"enterprise","Description":"Enterprise networking gear","Latitude":35.8535092,"Longitude":-78.8267112,"Founded Year":2009.0,"Total Money Raised":"$45.1M","Raised Amount":45100000.0,"Currency":"USD","Address":"1100 Perimeter Park Dr","Zip code":"27560","City":"Morrisville","GeoLocations":{"type":"Point","coordinates":[-78.8267112,35.8535092]}},{"ref":"52cdef7e4bab8bd67529aed9","Name":"Isai","Category":"finance","Description":"","Latitude":48.875092,"Longitude":2.2923129,"Founded Year":2009.0,"Total Money Raised":"$33M","Raised Amount":33000000.0,"Currency":"USD","Address":"10 bis avenue de la grande armee","Zip code":"75017","City":"paris","GeoLocations":{"type":"Point","coordinates":[2.2923129,48.875092]}},{"ref":"52cdef7e4bab8bd67529af1f","Name":"Shutl","Category":"ecommerce","Description":"","Latitude":51.5196135,"Longitude":-0.1020265,"Founded Year":2009.0,"Total Money Raised":"\u00a37.66M","Raised Amount":7660000.0,"Currency":"GBP","Address":"11 Curtain Road,","Zip code":"EC2A3LT","City":"London","GeoLocations":{"type":"Point","coordinates":[-0.1020265,51.5196135]}},{"ref":"52cdef7e4bab8bd67529b0e2","Name":"DediServe","Category":"network_hosting","Description":"Cloud Provider","Latitude":48.4353492,"Longitude":-122.3225393,"Founded Year":2009.0,"Total Money Raised":"\u20ac1M","Raised Amount":1000000.0,"Currency":"EUR","Address":"The Gasworks","Zip code":"","City":"Belfast","GeoLocations":{"type":"Point","coordinates":[-122.3225393,48.4353492]}},{"ref":"52cdef7e4bab8bd67529b0e2","Name":"DediServe","Category":"network_hosting","Description":"Cloud Provider","Latitude":53.3335644,"Longitude":-6.2448571,"Founded Year":2009.0,"Total Money Raised":"\u20ac1M","Raised Amount":1000000.0,"Currency":"EUR","Address":"13 Upper Baggot Street","Zip code":"","City":"Dublin","GeoLocations":{"type":"Point","coordinates":[-6.2448571,53.3335644]}},{"ref":"52cdef7e4bab8bd67529b0e2","Name":"DediServe","Category":"network_hosting","Description":"Cloud Provider","Latitude":37.449965,"Longitude":-122.1209764,"Founded Year":2009.0,"Total Money Raised":"\u20ac1M","Raised Amount":1000000.0,"Currency":"EUR","Address":"2225 Bayshore Road","Zip code":"CA 94303","City":"Palo Alto","GeoLocations":{"type":"Point","coordinates":[-122.1209764,37.449965]}},{"ref":"52cdef7e4bab8bd67529b0f2","Name":"Tinychat","Category":"web","Description":"In-Browser Audio, Video Chat","Latitude":42.3756409,"Longitude":-72.5196907,"Founded Year":2009.0,"Total Money Raised":"$1.5M","Raised Amount":1500000.0,"Currency":"USD","Address":"PO Box 431","Zip code":"11542","City":"Glen Cove","GeoLocations":{"type":"Point","coordinates":[-72.5196907,42.3756409]}},{"ref":"52cdef7e4bab8bd67529b158","Name":"BASH Gaming","Category":"games_video","Description":"Social Mobile Casino Games","Latitude":37.5561712,"Longitude":-122.0780632,"Founded Year":2010.0,"Total Money Raised":"$1M","Raised Amount":1000000.0,"Currency":"USD","Address":"","Zip code":"94555","City":"Fremont","GeoLocations":{"type":"Point","coordinates":[-122.0780632,37.5561712]}},{"ref":"52cdef7e4bab8bd67529b158","Name":"BASH Gaming","Category":"games_video","Description":"Social Mobile Casino Games","Latitude":12.971606,"Longitude":77.594376,"Founded Year":2010.0,"Total Money Raised":"$1M","Raised Amount":1000000.0,"Currency":"USD","Address":"","Zip code":"","City":"Bangalore","GeoLocations":{"type":"Point","coordinates":[77.594376,12.971606]}},{"ref":"52cdef7e4bab8bd67529b1f6","Name":"AppNeta","Category":"software","Description":"IT Performance Management","Latitude":42.318138,"Longitude":-71.24756,"Founded Year":2010.0,"Total Money Raised":"$55.8M","Raised Amount":55799998.0,"Currency":"USD","Address":"285 Summer Street","Zip code":"02127","City":"SOUTH BOSTON","GeoLocations":{"type":"Point","coordinates":[-71.24756,42.318138]}},{"ref":"52cdef7e4bab8bd67529b22a","Name":"AppZero","Category":"software","Description":"application migration software","Latitude":42.6751888,"Longitude":-71.1469003,"Founded Year":2009.0,"Total Money Raised":"$15.1M","Raised Amount":15100000.0,"Currency":"USD","Address":"300 Brickston Sq.","Zip code":"01810","City":"Andover","GeoLocations":{"type":"Point","coordinates":[-71.1469003,42.6751888]}},{"ref":"52cdef7e4bab8bd67529b2a6","Name":"MyLikes","Category":"advertising","Description":"Advertising platform for the people web","Latitude":37.777995,"Longitude":-122.408914,"Founded Year":2010.0,"Total Money Raised":"$6.23M","Raised Amount":6230000.0,"Currency":"USD","Address":"1000 Brannan St, #502","Zip code":"94103","City":"San Francisco","GeoLocations":{"type":"Point","coordinates":[-122.408914,37.777995]}},{"ref":"52cdef7e4bab8bd67529b2dc","Name":"Simulmedia","Category":"advertising","Description":"TV advertising company","Latitude":40.727216,"Longitude":-73.994797,"Founded Year":2009.0,"Total Money Raised":"$57.3M","Raised Amount":57250008.0,"Currency":"USD","Address":"670 Broadway","Zip code":"10012","City":"New York","GeoLocations":{"type":"Point","coordinates":[-73.994797,40.727216]}},{"ref":"52cdef7e4bab8bd67529b2d9","Name":"Cognitive Match","Category":"advertising","Description":"LET\u2019S GET RELEVANT","Latitude":51.5119418,"Longitude":-0.0936688,"Founded Year":2009.0,"Total Money Raised":"$10.2M","Raised Amount":10150000.0,"Currency":"USD","Address":"33\/14 Great Saint Thomas Apostle","Zip code":"EC4V 2BB","City":"London","GeoLocations":{"type":"Point","coordinates":[-0.0936688,51.5119418]}},{"ref":"52cdef7e4bab8bd67529b2d9","Name":"Cognitive Match","Category":"advertising","Description":"LET\u2019S GET RELEVANT","Latitude":40.7454098,"Longitude":-73.9822211,"Founded Year":2009.0,"Total Money Raised":"$10.2M","Raised Amount":10150000.0,"Currency":"USD","Address":"475 Park Ave S","Zip code":"10016","City":"New York","GeoLocations":{"type":"Point","coordinates":[-73.9822211,40.7454098]}},{"ref":"52cdef7e4bab8bd67529b2d9","Name":"Cognitive Match","Category":"advertising","Description":"LET\u2019S GET RELEVANT","Latitude":37.380653,"Longitude":-122.1156934,"Founded Year":2009.0,"Total Money Raised":"$10.2M","Raised Amount":10150000.0,"Currency":"USD","Address":"4 West 4th St","Zip code":"94402","City":"Palo Alto","GeoLocations":{"type":"Point","coordinates":[-122.1156934,37.380653]}},{"ref":"52cdef7e4bab8bd67529b2d9","Name":"Cognitive Match","Category":"advertising","Description":"LET\u2019S GET RELEVANT","Latitude":41.2601663,"Longitude":-96.0791435,"Founded Year":2009.0,"Total Money Raised":"$10.2M","Raised Amount":10150000.0,"Currency":"USD","Address":"10824 Old Mill Road","Zip code":"68154","City":"Omaha","GeoLocations":{"type":"Point","coordinates":[-96.0791435,41.2601663]}},{"ref":"52cdef7e4bab8bd67529b32d","Name":"Gridstore","Category":"network_hosting","Description":"Hyper-V Software Defined Storage","Latitude":37.4189073,"Longitude":-122.0884286,"Founded Year":2009.0,"Total Money Raised":"\u20ac25M","Raised Amount":25000000.0,"Currency":"EUR","Address":"1975 Lndings Drive","Zip code":"94043","City":"Mountain View","GeoLocations":{"type":"Point","coordinates":[-122.0884286,37.4189073]}},{"ref":"52cdef7e4bab8bd67529b3a8","Name":"Taggify","Category":"advertising","Description":"Monetize websites through ads in content","Latitude":-34.5829791,"Longitude":-58.4464379,"Founded Year":2011.0,"Total Money Raised":"$1M","Raised Amount":1000000.0,"Currency":"USD","Address":"Concepcion Arenal 3425","Zip code":"1414","City":"Buenos Aires","GeoLocations":{"type":"Point","coordinates":[-58.4464379,-34.5829791]}},{"ref":"52cdef7e4bab8bd67529b3be","Name":"thredUP","Category":"fashion","Description":"Fashion resale online","Latitude":37.7896438,"Longitude":-122.4014635,"Founded Year":2009.0,"Total Money Raised":"$25.8M","Raised Amount":25820000.0,"Currency":"USD","Address":"580 Market Street","Zip code":"94104","City":"San Francisco","GeoLocations":{"type":"Point","coordinates":[-122.4014635,37.7896438]}},{"ref":"52cdef7e4bab8bd67529b438","Name":"Foursquare","Category":"mobile","Description":"Location based mobile network","Latitude":40.724432,"Longitude":-73.997328,"Founded Year":2009.0,"Total Money Raised":"$147M","Raised Amount":147350000.0,"Currency":"USD","Address":"568 Broadway","Zip code":"10012","City":"New York","GeoLocations":{"type":"Point","coordinates":[-73.997328,40.724432]}},{"ref":"52cdef7e4bab8bd67529b438","Name":"Foursquare","Category":"mobile","Description":"Location based mobile network","Latitude":37.7812936,"Longitude":-122.4029786,"Founded Year":2009.0,"Total Money Raised":"$147M","Raised Amount":147350000.0,"Currency":"USD","Address":"363 Clementina St","Zip code":"94013","City":"San Francisco","GeoLocations":{"type":"Point","coordinates":[-122.4029786,37.7812936]}},{"ref":"52cdef7e4bab8bd67529b501","Name":"GameChanger Media","Category":"software","Description":"Digital platform for amateur sports.","Latitude":40.7078343,"Longitude":-74.0136605,"Founded Year":2009.0,"Total Money Raised":"$3.64M","Raised Amount":3637657.0,"Currency":"USD","Address":"86 Chambers St","Zip code":"10007","City":"New York","GeoLocations":{"type":"Point","coordinates":[-74.0136605,40.7078343]}},{"ref":"52cdef7e4bab8bd67529b52e","Name":"Z2Live","Category":"games_video","Description":"Mobile Games","Latitude":47.6103008,"Longitude":-122.3399782,"Founded Year":2009.0,"Total Money Raised":"$6.5M","Raised Amount":6499999.0,"Currency":"USD","Address":"1601 2nd Ave","Zip code":"98101","City":"Seattle","GeoLocations":{"type":"Point","coordinates":[-122.3399782,47.6103008]}},{"ref":"52cdef7e4bab8bd67529b572","Name":"Tongal","Category":"web","Description":"Creative Network","Latitude":34.007112,"Longitude":-118.489748,"Founded Year":2009.0,"Total Money Raised":"$16M","Raised Amount":16000000.0,"Currency":"USD","Address":"1918 Main Street","Zip code":"90405","City":"Santa Monica","GeoLocations":{"type":"Point","coordinates":[-118.489748,34.007112]}},{"ref":"52cdef7e4bab8bd67529b591","Name":"oneforty","Category":"enterprise","Description":"Social business hub","Latitude":42.364014,"Longitude":-71.101375,"Founded Year":2009.0,"Total Money Raised":"$2.35M","Raised Amount":2345000.0,"Currency":"USD","Address":"614 Massachusetts Ave, Suite 203","Zip code":"02139","City":"Cambridge","GeoLocations":{"type":"Point","coordinates":[-71.101375,42.364014]}},{"ref":"52cdef7e4bab8bd67529b5fc","Name":"Chartbeat","Category":"analytics","Description":"Realtime Web analytics","Latitude":40.73343,"Longitude":-73.990967,"Founded Year":2009.0,"Total Money Raised":"$14.5M","Raised Amount":14475000.0,"Currency":"USD","Address":"826 Broadway","Zip code":"10003","City":"New York","GeoLocations":{"type":"Point","coordinates":[-73.990967,40.73343]}},{"ref":"52cdef7e4bab8bd67529b625","Name":"One Kings Lane","Category":"ecommerce","Description":"Private Home Decor Sales","Latitude":37.7768337,"Longitude":-122.4163755,"Founded Year":2009.0,"Total Money Raised":"$113M","Raised Amount":113000000.0,"Currency":"USD","Address":"1355 Market St","Zip code":"94103","City":"San Francisco","GeoLocations":{"type":"Point","coordinates":[-122.4163755,37.7768337]}},{"ref":"52cdef7e4bab8bd67529b625","Name":"One Kings Lane","Category":"ecommerce","Description":"Private Home Decor Sales","Latitude":40.7237284,"Longitude":-74.0084371,"Founded Year":2009.0,"Total Money Raised":"$113M","Raised Amount":113000000.0,"Currency":"USD","Address":"205 Hudson Street","Zip code":"10013","City":"New York","GeoLocations":{"type":"Point","coordinates":[-74.0084371,40.7237284]}},{"ref":"52cdef7e4bab8bd67529b625","Name":"One Kings Lane","Category":"ecommerce","Description":"Private Home Decor Sales","Latitude":34.0666679,"Longitude":-118.4020671,"Founded Year":2009.0,"Total Money Raised":"$113M","Raised Amount":113000000.0,"Currency":"USD","Address":"9560 Wilshire Boulevard","Zip code":"90212","City":"Beverly Hills","GeoLocations":{"type":"Point","coordinates":[-118.4020671,34.0666679]}},{"ref":"52cdef7e4bab8bd67529b675","Name":"Brandsclub","Category":"ecommerce","Description":"Private Sales Club","Latitude":-23.5489433,"Longitude":-46.6388182,"Founded Year":2009.0,"Total Money Raised":"$17M","Raised Amount":17000000.0,"Currency":"USD","Address":"","Zip code":"","City":"Sao Paulo","GeoLocations":{"type":"Point","coordinates":[-46.6388182,-23.5489433]}},{"ref":"52cdef7e4bab8bd67529b6b9","Name":"CoTweet","Category":"advertising","Description":"Enterprise client for Twitter","Latitude":37.7405936,"Longitude":-122.3764714,"Founded Year":2009.0,"Total Money Raised":"$1.1M","Raised Amount":1100000.0,"Currency":"USD","Address":"Pier 38","Zip code":"94107","City":"San Francisco","GeoLocations":{"type":"Point","coordinates":[-122.3764714,37.7405936]}},{"ref":"52cdef7e4bab8bd67529b721","Name":"Novira Therapeutics","Category":"biotech","Description":"antiviral therapeutics","Latitude":40.0416375,"Longitude":-75.3604381,"Founded Year":2009.0,"Total Money Raised":"$44M","Raised Amount":43995221.0,"Currency":"USD","Address":"259 N. RADNOR-CHESTER ROAD, SUITE 220","Zip code":"19087","City":"Radnor","GeoLocations":{"type":"Point","coordinates":[-75.3604381,40.0416375]}},{"ref":"52cdef7e4bab8bd67529b7bb","Name":"DataXu","Category":"advertising","Description":"Buy-side Ad Optimization","Latitude":42.3498224,"Longitude":-71.0499504,"Founded Year":2009.0,"Total Money Raised":"$45.8M","Raised Amount":45800000.0,"Currency":"USD","Address":"281 Summer Street","Zip code":"02210","City":"Boston","GeoLocations":{"type":"Point","coordinates":[-71.0499504,42.3498224]}},{"ref":"52cdef7e4bab8bd67529b7bb","Name":"DataXu","Category":"advertising","Description":"Buy-side Ad Optimization","Latitude":40.7455694,"Longitude":-73.9899668,"Founded Year":2009.0,"Total Money Raised":"$45.8M","Raised Amount":45800000.0,"Currency":"USD","Address":"44 W 28th Street, 8th Floor","Zip code":"10001","City":"New York","GeoLocations":{"type":"Point","coordinates":[-73.9899668,40.7455694]}},{"ref":"52cdef7e4bab8bd67529b7bb","Name":"DataXu","Category":"advertising","Description":"Buy-side Ad Optimization","Latitude":41.8842493,"Longitude":-87.6416895,"Founded Year":2009.0,"Total Money Raised":"$45.8M","Raised Amount":45800000.0,"Currency":"USD","Address":"549 W Randolph St.","Zip code":"60661","City":"Chicago","GeoLocations":{"type":"Point","coordinates":[-87.6416895,41.8842493]}},{"ref":"52cdef7e4bab8bd67529b849","Name":"MyEdu","Category":"education","Description":"Succeed in college, and get a job.","Latitude":30.288159,"Longitude":-97.750154,"Founded Year":2009.0,"Total Money Raised":"$18.7M","Raised Amount":18700000.0,"Currency":"USD","Address":"1301 S. MoPac Expy","Zip code":"78746","City":"Austin","GeoLocations":{"type":"Point","coordinates":[-97.750154,30.288159]}},{"ref":"52cdef7e4bab8bd67529b8a7","Name":"Ikanos","Category":"enterprise","Description":"Broadband Chip Manufacturer","Latitude":37.4734314,"Longitude":-121.9417078,"Founded Year":2009.0,"Total Money Raised":"$42M","Raised Amount":42000000.0,"Currency":"USD","Address":"47669 Fremont Blvd.","Zip code":"94538","City":"Fremont","GeoLocations":{"type":"Point","coordinates":[-121.9417078,37.4734314]}},{"ref":"52cdef7e4bab8bd67529b8c0","Name":"Infochimps","Category":"enterprise","Description":"Big Data Solutions","Latitude":30.2734822,"Longitude":-97.7588828,"Founded Year":2009.0,"Total Money Raised":"$5.35M","Raised Amount":5350000.0,"Currency":"USD","Address":"1214 W 6th St","Zip code":"78703","City":"Austin","GeoLocations":{"type":"Point","coordinates":[-97.7588828,30.2734822]}},{"ref":"52cdef7e4bab8bd67529b8c0","Name":"Infochimps","Category":"enterprise","Description":"Big Data Solutions","Latitude":34.0156461,"Longitude":-118.4932146,"Founded Year":2009.0,"Total Money Raised":"$5.35M","Raised Amount":5350000.0,"Currency":"USD","Address":"425 Broadway","Zip code":"94063","City":"Redwood City","GeoLocations":{"type":"Point","coordinates":[-118.4932146,34.0156461]}},{"ref":"52cdef7e4bab8bd67529b96c","Name":"Mashape","Category":"enterprise","Description":"The Cloud API Hub","Latitude":37.7823554,"Longitude":-122.3942612,"Founded Year":2010.0,"Total Money Raised":"$1.6M","Raised Amount":1601000.0,"Currency":"USD","Address":"433 Bryant St.","Zip code":"94107","City":"San Francisco","GeoLocations":{"type":"Point","coordinates":[-122.3942612,37.7823554]}},{"ref":"52cdef7e4bab8bd67529b9e7","Name":"drchrono","Category":"medical","Description":"Bringing iPads to Healthcare","Latitude":37.4202074,"Longitude":-122.0933053,"Founded Year":2009.0,"Total Money Raised":"$4.13M","Raised Amount":4125000.0,"Currency":"USD","Address":"1001 Rengstorff Avenue","Zip code":"94043","City":"Mountain View","GeoLocations":{"type":"Point","coordinates":[-122.0933053,37.4202074]}},{"ref":"52cdef7e4bab8bd67529ba36","Name":"Square","Category":"mobile","Description":"Mobile payments system","Latitude":37.775316,"Longitude":-122.4174374,"Founded Year":2009.0,"Total Money Raised":"$341M","Raised Amount":340500000.0,"Currency":"USD","Address":"1455 Market Street","Zip code":"94103","City":"San Francisco","GeoLocations":{"type":"Point","coordinates":[-122.4174374,37.775316]}},{"ref":"52cdef7e4bab8bd67529bac7","Name":"Shareaholic","Category":"web","Description":"content sharing and discovery platform","Latitude":42.3647559,"Longitude":-71.1032591,"Founded Year":2009.0,"Total Money Raised":"$5.46M","Raised Amount":5455000.0,"Currency":"USD","Address":"109 Kingston Street","Zip code":"02111","City":"Boston","GeoLocations":{"type":"Point","coordinates":[-71.1032591,42.3647559]}},{"ref":"52cdef7e4bab8bd67529bb1f","Name":"SimpleGeo","Category":"advertising","Description":"Location Infrastructure","Latitude":41.113035,"Longitude":-74.054359,"Founded Year":2009.0,"Total Money Raised":"$9.81M","Raised Amount":9807367.0,"Currency":"USD","Address":"41 Decatur","Zip code":"94103","City":"San Francisco","GeoLocations":{"type":"Point","coordinates":[-74.054359,41.113035]}},{"ref":"52cdef7e4bab8bd67529bbbe","Name":"gdgt","Category":"hardware","Description":"Consumer electronics","Latitude":37.7822158,"Longitude":-122.4066217,"Founded Year":2009.0,"Total Money Raised":"$3.72M","Raised Amount":3715000.0,"Currency":"USD","Address":"901 Mission St.","Zip code":"94103","City":"San Francisco","GeoLocations":{"type":"Point","coordinates":[-122.4066217,37.7822158]}},{"ref":"52cdef7e4bab8bd67529bc46","Name":"Viralheat","Category":"enterprise","Description":"Monitor social media in real time.","Latitude":37.5578237,"Longitude":-122.2852905,"Founded Year":2009.0,"Total Money Raised":"$4.33M","Raised Amount":4325000.0,"Currency":"USD","Address":"1510 Fashion Island Blvd. Ste. 260","Zip code":"94404","City":"San Mateo","GeoLocations":{"type":"Point","coordinates":[-122.2852905,37.5578237]}},{"ref":"52cdef7e4bab8bd67529bc99","Name":"Vaultive","Category":"security","Description":"information-security","Latitude":40.707954,"Longitude":-74.011114,"Founded Year":2009.0,"Total Money Raised":"$11M","Raised Amount":11000000.0,"Currency":"USD","Address":"100 Broadway, 14th Floor","Zip code":"10005","City":"New York","GeoLocations":{"type":"Point","coordinates":[-74.011114,40.707954]}},{"ref":"52cdef7e4bab8bd67529bcb0","Name":"The Resumator","Category":"software","Description":"SaaS Recruiting Software","Latitude":40.438423,"Longitude":-80.001933,"Founded Year":2009.0,"Total Money Raised":"$2.98M","Raised Amount":2975000.0,"Currency":"USD","Address":"","Zip code":"","City":"Pittsburgh","GeoLocations":{"type":"Point","coordinates":[-80.001933,40.438423]}},{"ref":"52cdef7e4bab8bd67529bced","Name":"Sofa Labs","Category":"social","Description":"Social Applications Developer","Latitude":37.5646055,"Longitude":-122.3229235,"Founded Year":2009.0,"Total Money Raised":"$1.2M","Raised Amount":1200000.0,"Currency":"USD","Address":"300 South Ellsworth Avenue","Zip code":"94401","City":"San Mateo","GeoLocations":{"type":"Point","coordinates":[-122.3229235,37.5646055]}},{"ref":"52cdef7e4bab8bd67529bd23","Name":"Fliptop","Category":"enterprise","Description":"Predictive Analytics Platform","Latitude":37.775206,"Longitude":-122.419209,"Founded Year":2010.0,"Total Money Raised":"$6.79M","Raised Amount":6785000.0,"Currency":"USD","Address":"580 Howard Street","Zip code":"94105","City":"San Francisco","GeoLocations":{"type":"Point","coordinates":[-122.419209,37.775206]}},{"ref":"52cdef7e4bab8bd67529bd1a","Name":"Kickstarter","Category":"design","Description":"Creative project funding.","Latitude":40.7303597,"Longitude":-73.9586928,"Founded Year":2009.0,"Total Money Raised":"$10M","Raised Amount":10000000.0,"Currency":"USD","Address":"58 Kent St","Zip code":"11222","City":"Brooklyn","GeoLocations":{"type":"Point","coordinates":[-73.9586928,40.7303597]}},{"ref":"52cdef7e4bab8bd67529bd39","Name":"Quirky","Category":"ecommerce","Description":"We Make Invention Accessible","Latitude":40.7520464,"Longitude":-74.0052757,"Founded Year":2009.0,"Total Money Raised":"$175M","Raised Amount":175325006.0,"Currency":"USD","Address":"606 West 28th Street","Zip code":"10012","City":"New York","GeoLocations":{"type":"Point","coordinates":[-74.0052757,40.7520464]}},{"ref":"52cdef7f4bab8bd67529bd88","Name":"ClickFuel","Category":"advertising","Description":"Internet Marketing Solutions Provider","Latitude":42.3406534,"Longitude":-71.0680027,"Founded Year":2009.0,"Total Money Raised":"$9M","Raised Amount":9000000.0,"Currency":"USD","Address":"7 New England Executive Park","Zip code":"01803","City":"Burlington","GeoLocations":{"type":"Point","coordinates":[-71.0680027,42.3406534]}},{"ref":"52cdef7f4bab8bd67529bdcd","Name":"Gravity","Category":"advertising","Description":"Conversation Engine","Latitude":34.007967,"Longitude":-118.489681,"Founded Year":2009.0,"Total Money Raised":"$20.6M","Raised Amount":20600000.0,"Currency":"USD","Address":"Project Rover, Inc.","Zip code":"","City":"Santa Monica","GeoLocations":{"type":"Point","coordinates":[-118.489681,34.007967]}},{"ref":"52cdef7f4bab8bd67529be2e","Name":"Althea Systems","Category":"hardware","Description":"Internet TV startup","Latitude":12.9349604,"Longitude":77.6136847,"Founded Year":2009.0,"Total Money Raised":"$3M","Raised Amount":3000000.0,"Currency":"USD","Address":"#773, 80 Feet Road","Zip code":"560034","City":"Bangalore","GeoLocations":{"type":"Point","coordinates":[77.6136847,12.9349604]}},{"ref":"52cdef7f4bab8bd67529be67","Name":"Urban Airship","Category":"mobile","Description":"Mobile App Software","Latitude":45.5254159,"Longitude":-122.6857666,"Founded Year":2009.0,"Total Money Raised":"$46.6M","Raised Amount":46600000.0,"Currency":"USD","Address":"1417 NW Everett St.","Zip code":"97209","City":"Portland","GeoLocations":{"type":"Point","coordinates":[-122.6857666,45.5254159]}},{"ref":"52cdef7f4bab8bd67529be67","Name":"Urban Airship","Category":"mobile","Description":"Mobile App Software","Latitude":41.113035,"Longitude":-74.054359,"Founded Year":2009.0,"Total Money Raised":"$46.6M","Raised Amount":46600000.0,"Currency":"USD","Address":"41 Decatur","Zip code":"94103","City":"San Francisco","GeoLocations":{"type":"Point","coordinates":[-74.054359,41.113035]}},{"ref":"52cdef7f4bab8bd67529be67","Name":"Urban Airship","Category":"mobile","Description":"Mobile App Software","Latitude":37.3850626,"Longitude":-89.6631602,"Founded Year":2009.0,"Total Money Raised":"$46.6M","Raised Amount":46600000.0,"Currency":"USD","Address":"408 Florence Street","Zip code":"94301","City":"Palo Alto","GeoLocations":{"type":"Point","coordinates":[-89.6631602,37.3850626]}},{"ref":"52cdef7f4bab8bd67529be67","Name":"Urban Airship","Category":"mobile","Description":"Mobile App Software","Latitude":51.514848,"Longitude":-0.124801,"Founded Year":2009.0,"Total Money Raised":"$46.6M","Raised Amount":46600000.0,"Currency":"USD","Address":"24 Endell Street","Zip code":"WC2H 9HQ","City":"London","GeoLocations":{"type":"Point","coordinates":[-0.124801,51.514848]}},{"ref":"52cdef7f4bab8bd67529bf69","Name":"VistaGen Therapeutics","Category":"biotech","Description":"Pluripotent stem cell technology ","Latitude":37.6656476,"Longitude":-122.3843489,"Founded Year":2013.0,"Total Money Raised":"$41.3M","Raised Amount":41250000.0,"Currency":"USD","Address":"384 Oyster Point Blvd., Suite #8","Zip code":"94080","City":"South San Francisco","GeoLocations":{"type":"Point","coordinates":[-122.3843489,37.6656476]}},{"ref":"52cdef7f4bab8bd67529bf9a","Name":"Talenthouse","Category":"web","Description":"Content Marketing Platform","Latitude":42.4214995,"Longitude":-71.1361482,"Founded Year":2009.0,"Total Money Raised":"$15.1M","Raised Amount":15100000.0,"Currency":"USD","Address":"542 High St","Zip code":"94301","City":"Palo Alto","GeoLocations":{"type":"Point","coordinates":[-71.1361482,42.4214995]}},{"ref":"52cdef7f4bab8bd67529bf9a","Name":"Talenthouse","Category":"web","Description":"Content Marketing Platform","Latitude":34.0806286,"Longitude":-118.3859807,"Founded Year":2009.0,"Total Money Raised":"$15.1M","Raised Amount":15100000.0,"Currency":"USD","Address":"8810 Melrose Ave","Zip code":"90065","City":"West Hollywood","GeoLocations":{"type":"Point","coordinates":[-118.3859807,34.0806286]}},{"ref":"52cdef7f4bab8bd67529bfb5","Name":"BOKU","Category":"mobile","Description":"Mobile Payments Platform","Latitude":48.1386167,"Longitude":11.5835353,"Founded Year":2009.0,"Total Money Raised":"$77.5M","Raised Amount":77499998.0,"Currency":"USD","Address":"Maximillianstrasse 29","Zip code":"80539","City":"Munich","GeoLocations":{"type":"Point","coordinates":[11.5835353,48.1386167]}},{"ref":"52cdef7f4bab8bd67529bfc6","Name":"ipadio","Category":"messaging","Description":"Technology and Communications company","Latitude":51.8205815,"Longitude":0.0118608,"Founded Year":2009.0,"Total Money Raised":"$1.6M","Raised Amount":1600000.0,"Currency":"USD","Address":"96 Farringdon Road","Zip code":"EC1R 3EA","City":"London","GeoLocations":{"type":"Point","coordinates":[0.0118608,51.8205815]}},{"ref":"52cdef7f4bab8bd67529bfdf","Name":"Pixable","Category":"social","Description":"Your photo inbox","Latitude":40.725902,"Longitude":-74.0062355,"Founded Year":2009.0,"Total Money Raised":"$6.1M","Raised Amount":6100000.0,"Currency":"USD","Address":"137 Varick Street, 603","Zip code":"10013","City":"New York City","GeoLocations":{"type":"Point","coordinates":[-74.0062355,40.725902]}},{"ref":"52cdef7f4bab8bd67529c000","Name":"Applied Genetics Technologies Corporation","Category":"biotech","Description":"Gene therapy","Latitude":29.7847641,"Longitude":-82.4768036,"Founded Year":2009.0,"Total Money Raised":"$78.1M","Raised Amount":78050000.0,"Currency":"USD","Address":"11801 Research Drive","Zip code":"32615","City":"Alachua","GeoLocations":{"type":"Point","coordinates":[-82.4768036,29.7847641]}},{"ref":"52cdef7f4bab8bd67529c00e","Name":"Solix Biofuels","Category":"cleantech","Description":"biofuels-algae plants","Latitude":40.5932386,"Longitude":-105.0766501,"Founded Year":2009.0,"Total Money Raised":"$68.8M","Raised Amount":68800000.0,"Currency":"USD","Address":"430 B. North College Ave.","Zip code":"80524","City":"Fort Collins","GeoLocations":{"type":"Point","coordinates":[-105.0766501,40.5932386]}},{"ref":"52cdef7f4bab8bd67529c014","Name":"Ykone","Category":"web","Description":"Social media site for fashion","Latitude":48.8566667,"Longitude":2.3509871,"Founded Year":2009.0,"Total Money Raised":"\u20ac1.5M","Raised Amount":1500000.0,"Currency":"EUR","Address":"","Zip code":"","City":"Paris","GeoLocations":{"type":"Point","coordinates":[2.3509871,48.8566667]}},{"ref":"52cdef7f4bab8bd67529c041","Name":"Clovis Oncology","Category":"biotech","Description":"Oncology Compound Licencing Company","Latitude":40.026,"Longitude":-105.259041,"Founded Year":2009.0,"Total Money Raised":"$357M","Raised Amount":356962756.0,"Currency":"USD","Address":"2525 28th Street","Zip code":"80301","City":"Boulder","GeoLocations":{"type":"Point","coordinates":[-105.259041,40.026]}},{"ref":"52cdef7f4bab8bd67529c04d","Name":"Aragon Pharmaceuticals","Category":"biotech","Description":"Hormone-resistant Cancer Treatment","Latitude":36.3635472,"Longitude":-121.2777632,"Founded Year":2009.0,"Total Money Raised":"$122M","Raised Amount":122000000.0,"Currency":"USD","Address":"12780 El Camino Real Ste 301","Zip code":"92130-2042","City":"San Diego","GeoLocations":{"type":"Point","coordinates":[-121.2777632,36.3635472]}},{"ref":"52cdef7f4bab8bd67529c12a","Name":"Layar","Category":"mobile","Description":"Augmented Reality","Latitude":52.3657578,"Longitude":4.8928722,"Founded Year":2009.0,"Total Money Raised":"$13.4M","Raised Amount":13400000.0,"Currency":"USD","Address":"Vijzelstraat 20","Zip code":"1017HK","City":"Amsterdam","GeoLocations":{"type":"Point","coordinates":[4.8928722,52.3657578]}},{"ref":"52cdef7f4bab8bd67529c198","Name":"FertilityAuthority","Category":"web","Description":"Info Site for Fertility issues","Latitude":40.7552634,"Longitude":-73.9719482,"Founded Year":2009.0,"Total Money Raised":"$1.7M","Raised Amount":1700000.0,"Currency":"USD","Address":"150 East 49th Street, 5th Floor","Zip code":"10017","City":"New York","GeoLocations":{"type":"Point","coordinates":[-73.9719482,40.7552634]}},{"ref":"52cdef7f4bab8bd67529c1a0","Name":"Small Bone Innovations","Category":"medical","Description":"Small Bone Device Company","Latitude":40.1938255,"Longitude":-74.7670346,"Founded Year":2009.0,"Total Money Raised":"$469M","Raised Amount":469391464.0,"Currency":"USD","Address":"1380 S. Pennsylvania Avenue","Zip code":"19067","City":"Morrisville","GeoLocations":{"type":"Point","coordinates":[-74.7670346,40.1938255]}},{"ref":"52cdef7f4bab8bd67529c1a8","Name":"ticketea","Category":"ecommerce","Description":"Online event management platform","Latitude":40.4455155,"Longitude":-3.7061764,"Founded Year":2010.0,"Total Money Raised":"$5.73M","Raised Amount":5730000.0,"Currency":"USD","Address":"Marques de Lema","Zip code":"28003","City":"Madrid","GeoLocations":{"type":"Point","coordinates":[-3.7061764,40.4455155]}},{"ref":"52cdef7f4bab8bd67529c1d7","Name":"Personal","Category":"mobile","Description":"","Latitude":38.9028838,"Longitude":-77.0633399,"Founded Year":2009.0,"Total Money Raised":"$21.1M","Raised Amount":21081755.0,"Currency":"USD","Address":"1010 Wisconsin Ave. NW","Zip code":"20007","City":"Washington","GeoLocations":{"type":"Point","coordinates":[-77.0633399,38.9028838]}},{"ref":"52cdef7f4bab8bd67529c2d0","Name":"Delphi","Category":"cleantech","Description":"Mobile electronics","Latitude":42.603532,"Longitude":-83.16134,"Founded Year":2009.0,"Total Money Raised":"$8M","Raised Amount":8000000.0,"Currency":"USD","Address":"5725 Delphi Drive","Zip code":"48098","City":"","GeoLocations":{"type":"Point","coordinates":[-83.16134,42.603532]}},{"ref":"52cdef7f4bab8bd67529c343","Name":"ChallengePost","Category":"web","Description":"Software challenges and hackathons","Latitude":40.7408042,"Longitude":-74.00717,"Founded Year":2009.0,"Total Money Raised":"$4.6M","Raised Amount":4600000.0,"Currency":"USD","Address":"425 West 13th Street","Zip code":"10014","City":"New York","GeoLocations":{"type":"Point","coordinates":[-74.00717,40.7408042]}},{"ref":"52cdef7f4bab8bd67529c448","Name":"Teambox","Category":"web","Description":"Collaboration and file sharing","Latitude":41.4063346,"Longitude":2.1920231,"Founded Year":2009.0,"Total Money Raised":"$6.75M","Raised Amount":6750000.0,"Currency":"USD","Address":"Ronda Universitat 31","Zip code":"08007","City":"Barcelona","GeoLocations":{"type":"Point","coordinates":[2.1920231,41.4063346]}},{"ref":"52cdef7f4bab8bd67529c448","Name":"Teambox","Category":"web","Description":"Collaboration and file sharing","Latitude":37.4912229,"Longitude":-122.2286058,"Founded Year":2009.0,"Total Money Raised":"$6.75M","Raised Amount":6750000.0,"Currency":"USD","Address":"805 Veterans","Zip code":"94063","City":"Redwood City","GeoLocations":{"type":"Point","coordinates":[-122.2286058,37.4912229]}},{"ref":"52cdef7f4bab8bd67529c591","Name":"Aava Mobile","Category":"mobile","Description":"Mobile Platform Developer","Latitude":65.019096,"Longitude":25.4841981,"Founded Year":2009.0,"Total Money Raised":"$4.26M","Raised Amount":4260000.0,"Currency":"USD","Address":"Nahkatehtaankatu 2","Zip code":"","City":"","GeoLocations":{"type":"Point","coordinates":[25.4841981,65.019096]}},{"ref":"52cdef7f4bab8bd67529c59b","Name":"Luma International","Category":"software","Description":"Distributed Marketing SaaS Solution","Latitude":51.2135075,"Longitude":4.4248103,"Founded Year":2009.0,"Total Money Raised":"\u20ac3M","Raised Amount":3000000.0,"Currency":"EUR","Address":"Lange Kievitstraat 118-120","Zip code":"2018","City":"Antwerp","GeoLocations":{"type":"Point","coordinates":[4.4248103,51.2135075]}},{"ref":"52cdef7f4bab8bd67529c59b","Name":"Luma International","Category":"software","Description":"Distributed Marketing SaaS Solution","Latitude":37.5235183,"Longitude":-122.2585206,"Founded Year":2009.0,"Total Money Raised":"\u20ac3M","Raised Amount":3000000.0,"Currency":"EUR","Address":"303 Twin Dolphin Drive Suite 600","Zip code":"94065-1422","City":"303 Twin Dolphin Drive Suite 600","GeoLocations":{"type":"Point","coordinates":[-122.2585206,37.5235183]}},{"ref":"52cdef7f4bab8bd67529c59b","Name":"Luma International","Category":"software","Description":"Distributed Marketing SaaS Solution","Latitude":48.8559089,"Longitude":2.3667649,"Founded Year":2009.0,"Total Money Raised":"\u20ac3M","Raised Amount":3000000.0,"Currency":"EUR","Address":"22, place des Vosges","Zip code":"92400","City":"Courbevoie","GeoLocations":{"type":"Point","coordinates":[2.3667649,48.8559089]}},{"ref":"52cdef7f4bab8bd67529c59b","Name":"Luma International","Category":"software","Description":"Distributed Marketing SaaS Solution","Latitude":51.925164,"Longitude":4.4743846,"Founded Year":2009.0,"Total Money Raised":"\u20ac3M","Raised Amount":3000000.0,"Currency":"EUR","Address":"Delftseplein 36 3rd Floor","Zip code":"3013 AA","City":"Rotterdam","GeoLocations":{"type":"Point","coordinates":[4.4743846,51.925164]}},{"ref":"52cdef7f4bab8bd67529c6b6","Name":"Tiny Speck","Category":"games_video","Description":"","Latitude":49.2824551,"Longitude":-123.109217,"Founded Year":2009.0,"Total Money Raised":"$17.2M","Raised Amount":17200000.0,"Currency":"USD","Address":"163 Hastings St W","Zip code":"BC V6B 1H5","City":"Vancouver","GeoLocations":{"type":"Point","coordinates":[-123.109217,49.2824551]}},{"ref":"52cdef7f4bab8bd67529c6e4","Name":"Getyoo","Category":"mobile","Description":"NFC Events Solutions","Latitude":50.83997,"Longitude":4.3464721,"Founded Year":2009.0,"Total Money Raised":"\u20ac1.13M","Raised Amount":1130000.0,"Currency":"EUR","Address":"Rue des Tanneurs, 60a","Zip code":"1000","City":"Brussels","GeoLocations":{"type":"Point","coordinates":[4.3464721,50.83997]}}]